{
  "Users": [
    {
      "id": "1",
      "name": "Santiago Brahim",
      "tel": "3816311300",
      "mail": "brahimsantiag04@gmail.com",
      "asistingClass": "Gimnasio",
      "state": "Activo",
      "hour": "12:30 - 14:00"
    },
    {
      "id": "2",
      "name": "Pato Acu√±a",
      "tel": "3811112222",
      "mail": "patoacu04@gmail.com",
      "asistingClass": "Salsa y Bachata",
      "state": "Inactivo",
      "hour": "20:00 - 21:30"
    },
    {
      "id": "3",
      "name": "Valentino Queiro",
      "tel": "3813334444",
      "mail": "valentinoqueiro@gmail.com",
      "asistingClass": "Salsa y Bachata",
      "state": "Activo",
      "hour": "09:30 - 11:00"
    },
    {
      "id": "4",
      "name": "Mariano Luna",
      "tel": "3814445555",
      "mail": "lunoides@gmail.com",
      "asistingClass": "Pole Dance",
      "state": "Activo",
      "hour": "17:30 - 19:00"
    }
  ],
  "Classes": [
    {
      "id": "1",
      "className": "Salsa y Bachata",
      "hours": [
        "09:30 - 11:00",
        "16:15 - 17:45",
        "20:00 - 21:30"
      ]
    },
    {
      "id": "2",
      "className": "Gimnasio",
      "hours": [
        "08:15 - 09:45",
        "12:30 - 14:00",
        "18:00 - 19:30"
      ]
    },
    {
      "id": "3",
      "className": "Zumba",
      "hours": [
        "10:00 - 11:30",
        "15:00 - 16:30",
        "19:45 - 21:15"
      ]
    },
    {
      "id": "4",
      "className": "Pole Dance",
      "hours": [
        "09:00 - 10:30",
        "13:15 - 14:45",
        "17:30 - 19:00"
      ]
    }
  ]
}